City_ID,City,Lat,Lng,Max Temp,Humidity,Cloudiness,Wind Speed,Country,Date
0,port elizabeth,-33.918,25.5701,15.73,91,87,0.89,ZA,1730092105
1,kailua-kona,19.6406,-155.9956,23.66,95,100,0.45,US,1730092106
2,codrington,-38.2667,141.9667,14.64,59,52,5.8,AU,1730092107
3,puerto natales,-51.7236,-72.4875,6.82,91,100,7.26,CL,1730092108
4,adamstown,-25.066,-130.1015,21.38,81,39,4.21,PN,1730092109
5,raja,8.4596,25.678,21.17,55,67,1.37,SS,1730092110
6,qaqortoq,60.7167,-46.0333,0.06,99,100,2.6,GL,1730092112
7,isafjordur,66.0755,-23.124,-0.45,73,99,4.44,IS,1730092113
8,tiksi,71.6872,128.8694,-15.31,95,100,2.1,RU,1730092114
9,belyy yar,53.6039,91.3903,5.94,87,40,1.0,RU,1730092115
10,blackmans bay,-43.0167,147.3167,16.52,44,50,1.34,AU,1730092116
11,nyurba,63.2842,118.3319,-7.02,93,100,2.74,RU,1730092117
12,mount gambier,-37.8333,140.7667,16.47,48,37,4.31,AU,1730092119
13,grytviken,-54.2811,-36.5092,-2.51,83,25,0.67,GS,1730092120
14,brookings,44.3114,-96.7984,11.73,55,0,5.14,US,1730092121
15,avarua,-21.2078,-159.775,23.03,68,40,5.14,CK,1730092122
16,meulaboh,4.1363,96.1285,29.31,65,39,2.06,ID,1730092123
17,salinopolis,-0.6136,-47.3561,26.12,78,22,5.55,BR,1730092124
18,bethel,41.3712,-73.414,5.32,67,69,1.26,US,1730092126
19,hawaiian paradise park,19.5933,-154.9731,22.73,98,0,2.57,US,1730092127
20,vernon,50.2581,-119.2691,9.96,72,95,1.34,CA,1730092128
21,palmas,-10.2128,-48.3603,26.93,89,20,1.03,BR,1730091484
22,frenda,35.0654,1.0495,11.68,88,100,3.99,DZ,1730092130
23,port-aux-francais,-49.35,70.2167,2.9,75,91,14.74,TF,1730092131
24,kingston,17.997,-76.7936,28.53,84,20,2.06,JM,1730091919
25,dauphin,51.1494,-100.0502,7.04,54,100,5.47,CA,1730092133
26,campos,-21.75,-41.3,21.33,75,100,2.9,BR,1730092134
27,quatre cocos,-20.2078,57.7625,27.06,79,52,3.0,MU,1730092135
28,stanley,54.868,-1.6985,13.01,90,100,5.14,GB,1730092068
29,ushuaia,-54.8,-68.3,3.49,98,86,2.9,AR,1730092137
30,myskhako,44.6714,37.7433,11.03,66,58,2.67,RU,1730092138
31,afaahiti,-17.75,-149.2833,23.62,72,90,5.8,PF,1730092140
32,aksu,41.1231,80.2644,14.25,30,100,1.61,CN,1730092141
33,iqaluit,63.7506,-68.5145,-7.39,85,25,5.36,CA,1730092142
34,port lincoln,-34.7333,135.8667,17.37,60,7,5.35,AU,1730092143
35,port isabel,26.0734,-97.2086,24.02,88,20,0.0,US,1730092144
36,puerto ayora,-0.7393,-90.3518,20.31,92,78,2.24,EC,1730092145
37,villamontes,-21.25,-63.5,17.38,47,23,1.12,BO,1730092146
38,zadawa,11.4496,10.3672,22.07,24,20,3.41,NG,1730092147
39,yantarnyy,54.8717,19.9381,10.42,73,40,8.78,RU,1730092148
40,orchard homes,46.8633,-114.0484,7.08,79,100,5.66,US,1730092149
41,guarapari,-20.6667,-40.4975,21.06,89,100,5.34,BR,1730092150
42,bafia,4.75,11.2333,20.16,98,96,0.7,CM,1730092151
43,laguna,38.421,-121.4238,18.3,76,0,4.63,US,1730092152
44,margaret river,-33.95,115.0667,19.83,57,0,3.72,AU,1730092154
45,warrensburg,38.7628,-93.7361,15.94,58,0,4.12,US,1730092155
46,ust-nera,64.5667,143.2,-17.98,97,84,1.8,RU,1730092156
47,atafu village,-8.5421,-172.5159,27.86,75,100,4.51,TK,1730092157
48,cockburn town,21.4612,-71.1419,28.12,74,40,9.52,TC,1730092158
49,yokadouma,3.5167,15.05,20.66,99,100,1.15,CM,1730092159
50,amarante do maranhao,-5.5667,-46.7422,26.08,45,32,0.81,BR,1730092160
51,waitangi,-43.9535,-176.5597,12.12,96,42,4.92,NZ,1730092161
52,nogliki,51.8333,143.1667,3.01,56,54,5.39,RU,1730092162
53,aswan,24.0934,32.907,18.61,36,0,2.06,EG,1730091595
54,amga,60.8953,131.9608,-13.61,84,97,0.25,RU,1730092164
55,hechuan,29.9947,106.2572,23.05,46,63,2.22,CN,1730092165
56,mariental,-24.6333,17.9667,6.16,61,3,5.6,NA,1730092166
57,calama,-22.4667,-68.9333,7.27,16,0,6.69,CL,1730092168
58,hermanus,-34.4187,19.2345,16.56,87,96,8.96,ZA,1730092169
59,bull savanna,17.8868,-77.5902,25.21,82,90,1.89,JM,1730092170
60,beloyarskiy,63.7119,66.6722,-1.56,83,15,1.95,RU,1730092153
61,georgetown,5.4112,100.3354,30.96,74,20,1.54,MY,1730092172
62,plattsmouth,41.0114,-95.8822,17.06,62,0,4.12,US,1730092173
63,chonchi,-42.6128,-73.8092,6.73,97,14,0.97,CL,1730092174
64,san antonio de pale,-1.4014,5.6325,25.66,84,100,7.09,GQ,1730092175
65,hun,29.1268,15.9477,18.38,44,22,4.08,LY,1730092176
66,tazacorte,28.629,-17.9293,19.54,79,75,5.66,ES,1730092177
67,lauro de freitas,-12.8944,-38.3272,25.73,77,36,5.61,BR,1730092178
68,horta,38.5333,-28.6333,17.79,80,34,2.24,PT,1730092179
69,wailua homesteads,22.0669,-159.378,24.44,88,20,6.69,US,1730092180
70,ta`u,-14.2336,-169.5144,27.14,80,46,8.25,AS,1730092181
71,pariaman,-0.619,100.12,31.03,64,82,3.03,ID,1730092183
72,lagos,6.5833,3.75,24.79,91,100,0.73,NG,1730091602
73,as sulayyil,20.4607,45.5779,24.57,44,52,6.32,SA,1730092186
74,hamilton,39.1834,-84.5333,8.27,73,0,1.18,US,1730091822
75,marsh harbour,26.5412,-77.0636,25.26,68,94,6.27,BS,1730092188
76,sao tome,0.3365,6.7273,25.7,88,99,4.23,ST,1730092189
77,malvan,16.0667,73.4667,28.71,72,20,2.14,IN,1730092190
78,necochea,-38.5473,-58.7368,18.92,54,52,5.01,AR,1730092178
79,bengkulu,-3.8004,102.2655,29.22,66,6,3.64,ID,1730092121
80,cidade velha,14.9167,-23.6167,24.48,78,93,4.74,CV,1730092193
81,bredasdorp,-34.5322,20.0403,16.03,90,100,8.22,ZA,1730092195
82,lebu,-37.6167,-73.65,9.21,95,6,6.91,CL,1730092196
83,edinburgh of the seven seas,-37.0676,-12.3116,15.66,94,100,16.89,SH,1730092197
84,kokoda,-8.8785,147.7407,29.33,71,70,2.58,PG,1730092198
85,east london,-33.0153,27.9116,18.23,46,20,7.71,ZA,1730092199
86,belmonte,-15.8631,-38.8828,24.46,80,85,2.12,BR,1730092200
87,loch garman,52.3342,-6.4575,14.38,100,100,4.92,IE,1730092201
88,quellon,-43.1167,-73.6167,7.29,92,23,1.59,CL,1730092202
89,kunashak,55.7032,61.5498,1.39,84,97,2.93,RU,1730092203
90,longyearbyen,78.2186,15.6401,-4.09,93,20,3.6,SJ,1730092204
91,vilyuchinsk,52.9306,158.4028,4.15,65,68,0.52,RU,1730092205
92,la'ie,21.6477,-157.9253,25.06,85,29,3.13,US,1730092206
93,tolanaro,-25.0319,46.9987,27.15,69,42,4.91,MG,1730092208
94,alice springs,-23.7,133.8833,33.75,10,1,7.72,AU,1730092209
95,keflavik,64.0049,-22.5624,3.24,81,75,6.17,IS,1730092210
96,kismayo,-0.3582,42.5454,27.05,68,100,5.18,SO,1730092211
97,klyuchi,52.2667,79.1667,7.79,84,100,5.79,RU,1730092212
98,khandyga,62.6667,135.6,-14.98,76,100,0.24,RU,1730092213
99,sitka,57.0531,-135.33,6.94,76,40,1.54,US,1730092214
100,arkhangel'sk,64.5401,40.5433,2.06,100,100,4.0,RU,1730092215
101,albany,42.6001,-73.9662,5.88,70,33,0.89,US,1730092113
102,bodo,67.28,14.405,4.32,87,75,9.77,NO,1730092217
103,maloye ganyushkino,46.6,49.2667,6.63,64,62,3.89,KZ,1730092218
104,whitehorse,60.7161,-135.0538,-7.77,99,61,0.98,CA,1730092219
105,bilibino,68.0546,166.4372,-11.93,90,100,2.05,RU,1730092221
106,kodiak,57.79,-152.4072,0.73,80,0,2.57,US,1730092222
107,papatowai,-46.5619,169.4708,8.24,87,96,4.69,NZ,1730092223
108,kyrenia,35.3417,33.3167,15.75,48,30,1.46,CY,1730092226
109,helong,42.5397,128.9972,12.1,34,0,1.63,CN,1730092227
110,prado,-17.3411,-39.2208,24.24,80,65,2.53,BR,1730092228
111,northam,51.0333,-4.2167,13.12,97,42,6.86,GB,1730092229
112,tomatlan,19.9333,-105.25,22.87,85,0,1.15,MX,1730092230
113,lihue,21.9789,-159.3672,24.77,86,20,6.69,US,1730092231
114,mugia,43.1041,-9.2179,14.95,84,100,8.57,ES,1730092232
115,talnakh,69.4865,88.3972,-9.86,95,100,5.2,RU,1730092233
116,country club estates,31.2127,-81.4643,21.01,89,100,5.66,US,1730092234
117,west island,-12.1568,96.8225,28.99,74,75,6.17,CC,1730092236
118,el kef,36.1742,8.7049,15.65,94,16,1.64,TN,1730092237
119,tucuma,-0.1833,-50.05,25.23,77,100,3.87,BR,1730092238
120,tazovsky,67.4667,78.7,-2.29,96,100,4.19,RU,1730092240
121,muleba,-1.8397,31.6544,20.94,74,56,1.35,TZ,1730092241
122,fort st. john,56.2499,-120.8529,-1.74,90,99,2.28,CA,1730092242
123,guerrero negro,27.9769,-114.0611,18.08,87,0,4.1,MX,1730092025
124,tsiombe,-25.3,45.4833,28.13,62,93,3.09,MG,1730092244
125,punta arenas,-53.15,-70.9167,8.06,76,75,14.92,CL,1730092160
126,sao felix do xingu,-6.6447,-51.995,24.29,66,75,0.77,BR,1730092246
127,jamestown,42.097,-79.2353,5.8,70,40,1.54,US,1730092008
128,qulsary,46.9531,54.0198,6.67,58,96,3.75,KZ,1730092248
129,invercargill,-46.4,168.35,11.12,75,88,6.26,NZ,1730092250
130,shamil'kala,42.6858,46.8639,8.51,40,4,0.94,RU,1730092251
131,asyut,27.181,31.1837,18.44,62,0,3.69,EG,1730092252
132,labrador city,52.9463,-66.9114,-2.12,81,100,31.29,CA,1730092215
133,grand-popo,6.2804,1.8225,26.02,86,73,2.97,BJ,1730092254
134,cidreira,-30.1811,-50.2056,18.44,72,0,7.0,BR,1730092255
135,vadso,70.0744,29.7487,7.09,93,100,7.72,NO,1730092256
136,bethanie,-26.4833,17.15,6.13,64,5,2.09,NA,1730092257
137,dinguiraye,11.3,-10.7167,21.45,71,2,0.99,GN,1730092258
138,badger,64.8,-147.5333,-15.91,86,0,3.09,US,1730092259
139,menaka,15.9182,2.4022,26.38,18,36,3.77,ML,1730092261
140,kudahuvadhoo,2.6708,72.8944,28.36,69,100,6.71,MV,1730092262
141,cohasset,42.2418,-70.8037,7.86,55,32,4.68,US,1730092263
142,el higo,21.7667,-98.4667,20.69,91,0,1.18,MX,1730092264
143,aromashevo,56.8602,68.6375,0.57,82,71,3.42,RU,1730092265
144,luganville,-15.5333,167.1667,25.93,88,100,3.7,VU,1730092266
145,ilulissat,69.2167,-51.1,-11.99,52,10,1.03,GL,1730092267
146,ribeira grande,38.5167,-28.7,18.21,80,27,2.24,PT,1730092268
147,kapuskasing,49.4169,-82.4331,-2.74,65,79,1.86,CA,1730092269
148,enewetak,11.3474,162.3373,28.51,78,75,5.77,MH,1730092270
149,birjand,32.8663,59.2211,14.06,44,3,0.82,IR,1730092271
150,tselinnoye,53.0833,85.6667,7.76,80,92,3.3,RU,1730092274
151,selfoss,63.9331,-20.9971,0.02,93,100,2.86,IS,1730092275
152,vorgashor,67.5833,63.95,-1.31,91,100,3.36,RU,1730092276
153,sudak,44.85,34.9667,9.8,76,8,0.6,UA,1730092277
154,duyun,26.2667,107.5167,19.33,49,100,3.29,CN,1730092278
155,albertina,-22.2008,-46.6158,18.3,96,100,1.8,BR,1730092279
156,khuzdar,27.7384,66.6434,26.55,18,4,3.98,PK,1730092280
157,anadyr,64.75,177.4833,-3.33,68,40,8.0,RU,1730092281
158,yellowknife,62.456,-114.3525,-0.33,100,100,2.24,CA,1730092282
159,mogok,22.9167,96.5,26.16,45,3,1.5,MM,1730092283
160,tralee,52.2704,-9.7026,14.09,95,100,4.43,IE,1730092286
161,uturoa,-16.7333,-151.4333,25.41,71,18,5.55,PF,1730092287
162,inhambane,-23.865,35.3833,26.36,81,99,8.62,MZ,1730092288
163,ouarzazat,30.9189,-6.8934,14.37,51,99,2.51,MA,1730092289
164,bunia,1.5667,30.25,18.65,92,84,1.17,CD,1730092290
165,kaduy,59.2,37.15,3.81,94,83,2.97,RU,1730092291
166,constantia,44.1833,28.65,7.38,71,48,3.79,RO,1730092292
167,igrim,63.1906,64.4162,-0.29,73,16,2.2,RU,1730092294
168,tupancireta,-29.0806,-53.8358,11.02,77,2,3.64,BR,1730092295
169,vengerovo,55.6848,76.7471,4.53,76,100,3.91,RU,1730092296
170,college,64.8569,-147.8028,-14.96,84,0,3.09,US,1730092297
171,ormara,25.2088,64.6357,31.03,39,27,3.2,PK,1730092298
172,st. john's,47.5649,-52.7093,4.53,90,35,0.45,CA,1730092299
173,nova sintra,14.8667,-24.7167,25.78,75,94,9.29,CV,1730092301
174,onega,63.9061,38.1404,1.73,92,12,6.06,RU,1730092302
175,cermik,38.1361,39.4493,11.34,38,0,1.83,TR,1730092304
176,alenquer,-1.9417,-54.7383,27.68,48,86,3.34,BR,1730092305
177,mambolo,8.9231,-13.0444,24.52,93,91,0.47,SL,1730092306
178,minas de marcona,-15.2119,-75.1103,12.37,87,21,3.47,PE,1730092307
179,deschutes river woods,43.9915,-121.3584,4.68,73,40,1.79,US,1730092308
180,kruisfontein,-34.0033,24.7314,13.22,92,94,2.55,ZA,1730092309
181,thulamahashi,-24.7246,31.1994,26.15,55,0,3.13,ZA,1730092200
182,port-cartier,50.0334,-66.8654,0.25,61,97,6.88,CA,1730092311
183,aasiaat,68.7098,-52.8699,-17.54,78,36,3.09,GL,1730092312
184,songjiang,31.036,121.2146,19.98,63,91,4.45,CN,1730092313
185,nangong,37.3581,115.3744,18.64,33,0,2.3,CN,1730092095
186,richards bay,-28.783,32.0377,21.54,75,87,2.98,ZA,1730092316
187,iskateley,67.6803,53.1512,-0.61,87,24,5.66,RU,1730092317
188,port-vila,-17.7338,168.3219,25.78,89,75,6.17,VU,1730092318
189,mokhsogollokh,61.4681,128.9203,-12.36,70,61,1.06,RU,1730092319
190,houghton,47.1219,-88.569,8.75,89,75,4.63,US,1730092320
191,tha mai,12.6214,102.0048,25.38,90,100,0.5,TH,1730092321
192,sabang,5.8933,95.3214,28.29,77,89,9.17,ID,1730092322
193,upington,-28.4478,21.2561,7.91,62,19,3.82,ZA,1730092323
194,port alfred,-33.5906,26.891,16.77,71,96,1.79,ZA,1730092324
195,bandiagara,14.3501,-3.6104,26.53,33,7,3.42,ML,1730092325
196,midvagur,62.0511,-7.1939,4.46,93,100,3.6,FO,1730092326
197,catole do rocha,-6.3439,-37.7467,24.38,69,6,5.88,BR,1730092328
198,piet retief,-27.0071,30.8132,16.64,39,74,3.05,ZA,1730092329
199,hauterive,46.0901,3.4459,11.17,93,14,0.73,FR,1730092330
200,port mathurin,-19.6833,63.4167,23.94,75,2,6.67,MU,1730092331
201,ancud,-41.8697,-73.8203,7.37,87,3,1.67,CL,1730092332
202,haiku-pauwela,20.9219,-156.3051,25.01,74,0,8.05,US,1730092334
203,utrik,11.2278,169.8474,28.62,75,97,2.13,MH,1730092335
204,nouadhibou,20.931,-17.0347,19.99,77,46,10.29,MR,1730092336
205,guiuan,11.0333,125.7247,29.61,74,100,7.95,PH,1730092337
206,vila velha,-20.3297,-40.2925,21.64,89,100,6.69,BR,1730092163
207,aral,40.5156,81.2636,16.03,23,100,1.38,CN,1730092340
208,lindi,-10.0,39.7167,28.26,69,10,3.0,TZ,1730092341
209,ponta delgada,37.7333,-25.6667,18.44,68,75,3.6,PT,1730092342
210,motta sant'anastasia,37.5131,14.9659,16.69,85,20,1.54,IT,1730092343
211,grand falls-windsor,48.9332,-55.6649,0.28,88,52,5.0,CA,1730092344
212,minot,48.2325,-101.2963,10.12,53,0,5.14,US,1730092345
213,olonkinbyen,70.9221,-8.7187,-4.62,77,100,17.53,SJ,1730092346
214,tanjung pandan,-2.75,107.65,34.36,50,37,4.98,ID,1730092347
215,coahuayana de hidalgo,18.7,-103.6583,24.81,81,0,1.8,MX,1730092350
216,karratha,-20.7377,116.8463,36.46,26,1,7.71,AU,1730092351
217,oltinko'l,40.8011,72.1634,13.49,60,100,4.17,UZ,1730092352
218,mukalla,14.5425,49.1242,27.26,71,18,1.75,YE,1730092353
219,bayanhongor,46.7167,100.1167,-3.86,78,8,1.03,MN,1730092354
220,chui,-33.6971,-53.4616,13.05,88,100,2.41,UY,1730092356
221,gaigeturi,33.4644,126.3183,19.3,65,100,5.69,KR,1730092357
222,las khorey,11.1595,48.1967,28.67,62,12,2.87,SO,1730092358
223,ambovombe,-25.1667,46.0833,26.58,69,50,2.33,MG,1730092359
224,saipan,15.1355,145.701,31.39,74,40,4.12,MP,1730092109
225,fale old settlement,-9.3852,-171.2468,27.46,79,100,5.85,TK,1730092362
226,kalabo,-14.97,22.6814,23.29,65,100,3.1,ZM,1730092363
227,xinqing,48.2333,129.5,6.74,54,37,3.1,CN,1730092364
228,redcliff,-19.0333,29.7833,24.32,46,98,3.61,ZW,1730092335
229,kapa'a,22.0752,-159.319,25.18,88,20,6.69,US,1730092275
230,viedma,-40.8135,-62.9967,15.23,33,40,3.6,AR,1730092350
231,stornoway,58.2093,-6.3865,10.98,96,100,3.6,GB,1730092368
232,kupino,54.3663,77.2981,3.74,89,100,7.7,RU,1730092369
233,south sioux city,42.4739,-96.4136,15.67,41,100,3.58,US,1730092371
234,malinyi,-8.9333,36.1333,27.53,64,20,2.01,TZ,1730092155
235,uniara,26.15,75.2167,30.74,28,7,3.38,IN,1730092373
236,la ronge,55.1001,-105.2842,4.12,75,100,6.69,CA,1730092374
237,belozersk,60.0326,37.7957,3.77,87,88,5.07,RU,1730092375
238,susuman,62.7833,148.1667,-14.34,91,100,1.32,RU,1730092376
239,san patricio,28.017,-97.5169,19.97,72,0,3.37,US,1730092377
240,arraial do cabo,-22.9661,-42.0278,22.17,72,100,3.02,BR,1730092378
241,mokshan,53.4365,44.6132,3.85,72,92,0.48,RU,1730092381
242,mil'kovo,55.6078,37.7956,6.84,92,38,2.4,RU,1730092382
243,embrun,44.5639,6.4953,7.49,84,52,2.3,FR,1730092383
244,khash,28.2211,61.2158,17.42,32,0,3.86,IR,1730092384
245,dul'durga,50.6761,113.5931,4.43,60,100,0.91,RU,1730092385
246,thompson,55.7435,-97.8558,-1.42,54,100,5.78,CA,1730092124
247,prades,42.5833,2.1667,5.6,81,100,1.27,FR,1730092387
248,chibougamau,49.9168,-74.3659,-3.21,80,100,5.14,CA,1730092388
249,damboa,11.156,12.7576,21.91,26,8,2.49,NG,1730092389
250,carlsbad,33.1581,-117.3506,18.49,89,0,1.54,US,1730092391
251,brisas de zicatela,15.8369,-97.0419,25.53,76,42,1.89,MX,1730092392
252,mili,6.0815,171.735,28.99,72,72,1.94,MH,1730092393
253,ponte nova,-20.4164,-42.9086,19.31,91,99,1.63,BR,1730092394
254,kijang,35.2442,129.2139,16.67,84,100,10.09,KR,1730092357
255,piti village,13.4626,144.6933,29.38,87,96,5.21,GU,1730092396
256,delijan,33.9905,50.6838,9.31,48,2,1.23,IR,1730092397
257,gao,16.6362,1.637,26.07,18,1,4.84,ML,1730092398
258,shahpur,16.7,76.8333,28.36,46,26,1.61,IN,1730092399
259,kayangel,8.0823,134.7173,29.01,75,98,9.22,PW,1730092400
260,dwarka,22.2394,68.9678,30.32,63,49,5.03,IN,1730092402
261,chernushka,56.5072,56.0766,1.06,73,71,1.84,RU,1730092403
262,qamdo,31.1667,97.2333,10.31,25,3,1.78,CN,1730092404
263,jerseyville,39.12,-90.3285,11.6,47,1,3.85,US,1730092405
264,dudinka,69.4058,86.1778,-9.27,94,100,7.87,RU,1730092406
265,bogale,16.2833,95.4,30.54,73,45,3.9,MM,1730092119
266,port macquarie,-31.4333,152.9167,24.48,63,2,3.13,AU,1730092408
267,cajati,-24.7361,-48.1228,17.99,90,100,1.1,BR,1730092216
268,iquique,-20.2208,-70.1431,16.78,77,36,1.29,CL,1730092410
269,kuusamo,65.9667,29.1833,6.02,100,100,7.72,FI,1730092280
270,sisimiut,66.9395,-53.6735,-8.75,59,100,2.73,GL,1730092413
271,esmeraldas,-19.7625,-44.3139,19.51,96,100,2.52,BR,1730092414
272,armacao de buzios,-22.7469,-41.8817,21.71,75,100,1.53,BR,1730092415
273,balkanabat,39.5108,54.3671,11.83,50,2,2.26,TM,1730092416
274,kosh-agach,50.0,88.6667,-0.43,74,93,0.64,RU,1730092417
275,glendive,47.1053,-104.7125,4.79,52,0,0.0,US,1730092155
276,woodward,36.4337,-99.3904,19.51,63,0,7.2,US,1730092419
277,nizhneudinsk,54.9076,99.0276,8.71,67,95,2.59,RU,1730092420
278,nar'yan-mar,67.6713,53.087,-0.6,87,25,5.66,RU,1730092422
279,xiaoweizhai,26.1903,107.5125,18.85,51,100,3.18,CN,1730092423
280,remire-montjoly,4.9167,-52.2667,23.02,94,0,0.0,GF,1730092424
281,igbeti,8.75,4.1333,22.25,55,6,1.85,NG,1730092425
282,hithadhoo,-0.6,73.0833,27.99,76,100,5.81,MV,1730092426
283,constitucion,-35.3333,-72.4167,14.35,55,0,2.72,CL,1730092427
284,puerto quijarro,-17.7833,-57.7667,22.78,94,74,0.47,BO,1730092428
285,kushiro,42.975,144.3747,10.81,71,72,5.37,JP,1730092430
286,qusmuryn,52.4503,64.6311,3.81,75,46,5.59,KZ,1730092431
287,codajas,-3.8367,-62.0569,24.63,85,89,1.24,BR,1730092433
288,ushtobe,45.2514,77.9838,9.16,64,100,8.84,KZ,1730092434
289,mirganj,28.55,79.2,29.36,48,2,1.39,IN,1730092435
290,gua musang,4.8823,101.9644,35.09,41,91,0.87,MY,1730092436
291,agat village,13.3886,144.6585,29.42,87,97,2.68,GU,1730092437
292,matoury,4.8483,-52.3317,22.98,94,0,0.0,GF,1730092439
293,ust'-kulom,61.6864,53.6902,-0.54,93,55,0.57,RU,1730092440
294,basoko,1.2391,23.616,22.6,92,96,0.5,CD,1730092442
295,pontianak,-0.0333,109.3333,32.99,62,75,2.57,ID,1730092443
296,saldanha,-33.0117,17.9442,15.66,92,12,8.22,ZA,1730092444
297,crucecita,-28.95,-58.9833,15.93,67,84,2.59,AR,1730092445
298,hadibu,12.65,54.0333,27.3,71,31,3.33,YE,1730092446
299,vila franca do campo,37.7167,-25.4333,18.27,99,76,2.6,PT,1730092447
300,bairnsdale,-37.8333,147.6167,17.07,47,27,5.63,AU,1730092448
301,carbonear,47.7332,-53.2148,3.89,67,72,7.46,CA,1730092449
302,ceeldheer,3.8488,47.1806,27.08,76,88,3.46,SO,1730092452
303,chernigovka,44.3389,132.5728,8.34,52,5,1.89,RU,1730092453
304,udachny,66.4167,112.4,-16.49,94,90,1.36,RU,1730092273
305,hammerfest,70.6634,23.6821,5.25,87,75,1.54,NO,1730092455
306,puerto lempira,15.2667,-83.7667,25.79,85,100,2.25,HN,1730092456
307,tara,56.8944,74.371,3.18,90,100,2.57,RU,1730092457
308,harstad,68.799,16.5293,3.42,97,100,6.26,NO,1730092458
309,frederico westphalen,-27.3592,-53.3944,13.57,92,0,0.91,BR,1730092459
310,zhaozhou,45.6833,125.3167,10.88,42,1,2.53,CN,1730092460
311,itaituba,-4.2761,-55.9836,24.23,44,93,0.23,BR,1730092462
312,upper grand lagoon,30.1633,-85.7408,20.57,96,0,0.0,US,1730092463
313,lazaro cardenas,17.9583,-102.2,25.73,82,0,1.96,MX,1730092464
314,waingapu,-9.6567,120.2641,32.12,55,8,5.78,ID,1730092465
315,caribou,46.8606,-68.012,-1.76,72,0,4.12,US,1730092466
316,jayapura,-2.5333,140.7,30.66,69,55,3.34,ID,1730092467
317,broken hill,-31.95,141.4333,25.14,17,0,7.62,AU,1730092468
318,lucapa,-8.4192,20.7447,18.99,97,99,1.06,AO,1730092469
319,arno,60.1167,18.6333,5.95,82,0,6.57,SE,1730092471
320,carsamba,41.1989,36.7219,6.86,100,0,1.54,TR,1730092472
321,flin flon,54.7682,-101.865,2.79,68,100,8.17,CA,1730092473
322,ceerigaabo,10.6162,47.368,19.51,41,34,2.11,SO,1730092359
323,at taj,24.2049,23.2857,14.31,50,0,3.43,LY,1730092475
324,qarazhal,48.0078,70.7903,4.0,79,99,9.81,KZ,1730092476
325,gamba,-2.65,10.0,24.66,90,99,4.81,GA,1730092477
326,north bondi,-33.8824,151.2769,22.05,67,75,9.77,AU,1730092478
327,puerto carreno,6.189,-67.4859,26.5,86,77,1.21,CO,1730092479
328,sao jose da coroa grande,-8.8978,-35.1478,25.76,76,98,5.33,BR,1730092209
329,acajutla,13.5928,-89.8275,25.94,76,98,2.93,SV,1730092482
330,petropavlovsk-kamchatsky,53.0452,158.6483,3.33,41,75,1.0,RU,1730092483
331,alotau,-10.3069,150.4462,29.89,67,86,2.14,PG,1730092484
332,pudozh,61.8099,36.5345,3.74,93,25,4.17,RU,1730092485
333,weno,7.4515,151.8468,29.37,70,70,2.96,FM,1730092486
334,karangampel,-6.4622,108.4519,31.55,55,65,5.08,ID,1730092487
335,livny,52.4253,37.6069,6.25,82,89,2.41,RU,1730092490
336,taraz,42.9,71.3667,7.23,70,100,5.0,KZ,1730092491
337,jean-rabel,19.8533,-73.1917,26.29,87,100,7.16,HT,1730092492
338,nilakottai,10.1667,77.8667,29.96,52,100,1.48,IN,1730092493
339,hachinohe,40.5,141.5,14.46,57,79,6.54,JP,1730092494
340,fisterra,42.9049,-9.2629,15.39,82,82,8.81,ES,1730092495
341,sao joao da barra,-21.6403,-41.0511,22.29,74,100,4.84,BR,1730092496
342,luderitz,-26.6481,15.1594,12.31,73,30,4.62,NA,1730092497
343,ust'-barguzin,53.45,108.9833,5.62,70,72,1.38,RU,1730092498
344,mikhaylov,54.2292,39.0186,6.66,90,95,2.16,RU,1730092500
345,kalachinsk,55.0529,74.5751,4.1,91,100,5.17,RU,1730092501
346,taulaga,-11.0553,-171.0883,25.36,90,100,6.44,AS,1730092502
347,aradippou,34.95,33.5917,16.88,47,0,3.09,CY,1730092503
348,katsuren-haebaru,26.3369,127.8719,31.21,58,20,5.66,JP,1730092504
349,severnoye,56.3491,78.3619,4.16,82,100,2.97,RU,1730092505
350,koryazhma,61.3143,47.1691,3.95,85,100,1.67,RU,1730092340
351,myeik,12.4333,98.6,27.63,82,100,3.93,MM,1730092507
352,tofol,5.3248,163.0078,31.88,66,75,3.6,FM,1730092508
353,nemuro,43.3236,145.575,10.82,75,70,10.22,JP,1730092510
354,gardnerville ranchos,38.8882,-119.7413,11.71,40,100,5.66,US,1730092511
355,el calafate,-50.3408,-72.2768,7.46,78,31,9.06,AR,1730092512
356,comodoro rivadavia,-45.8667,-67.5,14.01,40,100,8.67,AR,1730092513
357,oranjemund,-28.55,16.4333,13.36,71,82,1.71,NA,1730092515
358,lerwick,60.1545,-1.1494,9.39,88,97,3.02,GB,1730092516
359,'ayn al 'arab,36.8932,38.3651,13.81,31,0,2.14,SY,1730092518
360,holualoa,19.6228,-155.9522,21.59,95,100,1.67,US,1730092519
361,mary,37.0,62.5,12.23,48,100,3.25,TM,1730092520
362,sambava,-14.2667,50.1667,27.05,71,10,2.58,MG,1730092521
363,lisala,2.15,21.5167,21.57,97,73,0.87,CD,1730092522
364,tokar,18.4254,37.729,30.09,67,0,5.17,SD,1730092523
365,mount pearl,47.5166,-52.7813,4.07,89,30,0.89,CA,1730092524
366,peace river,56.2501,-117.286,0.44,89,100,2.16,CA,1730092525
367,puerto deseado,-47.7503,-65.8938,12.12,38,29,5.22,AR,1730092526
368,kwang binh,17.4833,106.6,23.41,98,100,10.04,VN,1730092527
369,dobryanka,58.4619,56.4165,1.41,83,97,1.51,RU,1730092529
370,katsuura,35.1333,140.3,19.66,90,100,7.65,JP,1730092277
371,liman,48.9884,37.8023,5.53,89,99,2.53,UA,1730092528
372,borkum,53.5809,6.6915,11.52,91,100,8.0,DE,1730092533
373,kuqa,41.7278,82.9364,14.31,26,100,1.25,CN,1730092534
374,happy valley-goose bay,53.3168,-60.3315,-0.17,88,100,4.85,CA,1730092535
375,santa cruz,-17.8,-63.1667,20.7,88,40,2.06,BO,1730092419
376,tromso,69.6496,18.957,5.01,81,75,9.77,NO,1730092537
377,san julian,21.0167,-102.1667,11.3,64,4,1.99,MX,1730092539
378,nova vicosa,-17.8919,-39.3719,23.81,82,74,1.46,BR,1730092540
379,sur,22.5667,59.5289,30.67,45,0,0.76,OM,1730092541
380,carnarvon,-24.8667,113.6333,29.09,45,0,9.02,AU,1730092273
381,taltal,-25.4,-70.4833,15.81,83,22,0.44,CL,1730092543
382,luocheng,29.3848,104.0286,22.05,50,63,2.05,CN,1730092544
383,kabo,7.6994,18.629,21.9,89,8,1.07,CF,1730092545
384,zhanaozen,43.3,52.8,7.11,62,83,0.88,KZ,1730092546
385,vilyuysk,63.7553,121.6247,-11.61,88,100,3.8,RU,1730092547
386,la passe,45.5549,-0.8967,12.35,93,0,2.67,FR,1730092548
387,kone,-21.0595,164.8658,26.66,56,51,2.01,NC,1730092549
388,aykhal,66.0,111.5,-16.61,96,87,1.57,RU,1730092551
389,palau,7.503,134.621,27.98,78,100,4.63,PW,1730092552
390,mossel bay,-34.1831,22.146,14.96,85,83,7.27,ZA,1730092460
391,martapura,-3.4167,114.85,34.05,52,40,3.6,ID,1730092554
392,lagunas,-5.2269,-75.6753,22.51,99,100,0.5,PE,1730092555
393,sharlyk,52.9167,54.75,2.87,74,100,1.78,RU,1730092557
394,kingsbridge,50.2845,-3.7764,13.67,93,94,6.93,GB,1730092558
395,trairi,-3.2778,-39.2689,25.61,77,9,5.24,BR,1730092395
396,cabo san lucas,22.8909,-109.9124,25.6,66,2,4.05,MX,1730092560
397,igarka,67.4667,86.5833,-8.4,95,100,5.45,RU,1730092562
398,meadow lakes,61.6247,-149.6011,-5.42,93,0,0.0,US,1730092563
399,ketchikan,55.3422,-131.6461,6.54,93,0,2.57,US,1730092564
400,middlebury (village),44.0153,-73.1673,1.53,92,100,0.0,US,1730092565
401,sandnessjoen,66.0217,12.6316,6.06,75,40,5.14,NO,1730092567
402,port blair,11.6667,92.75,31.02,70,40,3.6,IN,1730092568
403,safford,32.834,-109.7076,21.51,23,0,0.0,US,1730092569
404,bonthe,7.5264,-12.505,25.34,87,7,1.9,SL,1730092570
405,benjamin constant,-4.3831,-70.0311,23.07,99,100,0.68,BR,1730092571
406,kidal,18.4411,1.4078,25.32,18,58,3.37,ML,1730092572
407,margosatubig,7.5777,123.1658,31.13,64,70,4.7,PH,1730092573
408,hohhot,40.8106,111.6522,11.19,45,59,2.38,CN,1730092574
409,merizo village,13.2658,144.6691,29.21,87,100,5.16,GU,1730092575
410,fiambala,-27.6871,-67.6149,19.47,45,0,1.49,AR,1730092542
411,muisne,0.6,-80.0333,23.72,88,100,4.55,EC,1730092577
412,port saint john's,-31.6229,29.5448,19.87,50,1,2.98,ZA,1730092579
413,smithers,54.7804,-127.1743,2.94,96,100,0.81,CA,1730092580
414,novaya igirma,57.1334,103.9112,2.08,87,100,1.23,RU,1730092581
415,santa elena de uairen,4.6167,-61.1333,20.12,83,100,1.64,VE,1730092582
416,crane,31.3974,-102.3501,22.51,41,2,9.61,US,1730092583
417,rancho palos verdes,33.7445,-118.387,18.63,88,99,1.34,US,1730092584
418,meadow lake,34.8014,-106.5436,20.94,32,80,4.13,US,1730092585
419,kalmunai,7.4167,81.8167,29.34,71,17,1.37,LK,1730092586
420,paracuru,-3.41,-39.0306,25.9,78,7,5.59,BR,1730092589
421,jawf al maqbabah,13.8378,45.8349,24.49,53,10,1.65,YE,1730092590
422,bamboo flat,11.7,92.7167,31.05,70,40,3.6,IN,1730092591
423,kerikeri,-35.2268,173.9474,16.77,52,12,4.12,NZ,1730092592
424,kalajoki,64.25,23.95,5.51,82,63,7.1,FI,1730092593
425,revda,56.801,59.9303,0.08,81,100,3.57,RU,1730092594
426,letterkenny,54.95,-7.7333,12.74,97,100,3.03,IE,1730092595
427,bang saphan,11.2126,99.5117,30.2,67,100,3.7,TH,1730092596
428,bodaybo,57.8506,114.1933,2.61,79,100,2.27,RU,1730092597
429,tura,25.5198,90.2201,28.89,60,0,1.03,IN,1730092599
430,panaba,21.2833,-88.2667,23.23,91,98,3.09,MX,1730092600
431,coquimbo,-29.9533,-71.3436,12.85,94,100,2.57,CL,1730092588
432,gadzhiyevo,69.2551,33.3362,6.61,87,100,10.26,RU,1730092602
433,poronaysk,49.2167,143.1167,5.77,40,8,5.11,RU,1730092561
434,naujoji akmene,56.3167,22.9,5.93,86,57,4.23,LT,1730092604
435,longboat key,27.4125,-82.659,22.22,76,0,0.0,US,1730092605
436,tindouf,27.6711,-8.1474,14.26,83,0,6.34,DZ,1730092606
437,mejit,10.2753,170.8646,28.72,74,11,1.88,MH,1730092607
438,urengoy,65.9667,78.3667,-2.94,97,97,2.56,RU,1730092608
439,nicoya,10.1483,-85.452,22.66,93,100,0.36,CR,1730092408
440,gutao,37.2025,112.1781,17.93,36,0,2.77,CN,1730092611
441,port alberni,49.2413,-124.8028,8.22,93,97,1.34,CA,1730092401
442,edson,53.5835,-116.4356,-0.94,100,0,3.09,CA,1730092613
443,boguchany,58.3814,97.4531,2.29,99,100,1.85,RU,1730092614
444,rio grande,-32.035,-52.0986,15.77,76,0,4.35,BR,1730092615
445,aleksandrow lodzki,51.8196,19.3038,7.94,91,1,0.51,PL,1730092616
446,ola,59.5833,151.2833,-6.94,51,19,4.94,RU,1730092617
447,de soto,34.9248,-89.9904,16.92,83,0,2.06,US,1730092618
448,mananjary,-21.2167,48.3333,26.38,76,49,3.12,MG,1730092619
449,wailea,19.8858,-155.123,23.95,86,0,2.57,US,1730092621
450,aioun,16.6614,-9.6149,27.68,23,64,4.32,MR,1730092622
451,durango,24.8333,-104.8333,13.25,62,0,0.55,MX,1730092623
452,miles city,46.4083,-105.8406,8.54,42,0,4.63,US,1730092624
453,lata,40.1629,-8.3327,7.98,86,31,1.99,PT,1730092625
454,chacabuco,-34.6417,-60.4739,14.65,67,0,3.11,AR,1730092626
455,tshikapa,-6.4167,20.8,23.07,82,38,0.39,CD,1730092469
456,verkhnevilyuysk,63.4453,120.3167,-8.94,92,100,3.4,RU,1730092628
457,filipstad,59.7124,14.1683,5.3,86,24,3.93,SE,1730092629
458,caleta de carquin,-11.0925,-77.6267,17.2,88,65,4.24,PE,1730092632
459,chishtian,29.8,72.8667,33.95,20,6,3.57,PK,1730092633
460,masterton,-40.9597,175.6575,12.06,82,89,4.46,NZ,1730092634
461,san jose temascatio,20.6833,-101.2667,12.04,78,0,2.53,MX,1730092635
462,chernomorskoye,45.5039,32.6997,14.74,72,19,5.56,UA,1730092558
463,yaren,-0.5472,166.916,28.45,74,47,5.24,NR,1730092637
464,porto velho,-8.7619,-63.9039,22.13,98,96,0.41,BR,1730092527
465,pokhara,28.2333,83.9833,23.18,72,51,1.84,NP,1730092639
466,fort bragg,35.139,-79.006,12.12,90,0,1.54,US,1730092375
467,bukama,-9.2,25.85,22.91,79,89,0.51,CD,1730092641
468,newman,37.3138,-121.0208,18.35,70,90,2.68,US,1730092643
469,el soberbio,-27.2985,-54.1988,14.66,84,0,0.31,AR,1730092644
470,walvis bay,-22.9575,14.5053,8.53,81,0,3.09,NA,1730092645
471,kabansk,52.0486,106.6528,8.03,54,99,1.19,RU,1730092646
472,jinchang,38.4953,102.1739,15.47,15,0,2.31,CN,1730092647
473,fall river,41.7015,-71.1551,7.78,67,85,0.89,US,1730092401
474,namibe,-15.1961,12.1522,18.13,82,27,1.29,AO,1730092649
475,mazar-e sharif,36.709,67.1109,15.54,55,99,4.5,AF,1730092650
476,el granada,37.5027,-122.4694,16.03,88,0,6.69,US,1730092652
477,taro,-8.3862,115.28,33.03,36,62,2.17,ID,1730092653
478,saint-francois,46.4154,3.9054,10.92,94,20,1.54,FR,1730092654
479,carauari,-4.8828,-66.8958,22.94,100,100,0.51,BR,1730092655
480,monterrey,25.6667,-100.3167,21.51,64,0,2.0,MX,1730092137
481,rechytsa,52.3617,30.3916,5.4,76,25,1.99,BY,1730092634
482,inverness,57.4791,-4.224,8.95,95,75,0.51,GB,1730092624
483,clearwater,27.9659,-82.8001,23.37,78,0,1.54,US,1730092438
484,alakurtti,66.9672,30.3491,6.08,94,100,4.16,RU,1730092660
485,alaghsas,17.0187,8.0168,19.94,30,0,5.14,NE,1730092662
486,antsiranana,-12.2787,49.2917,30.42,58,40,5.14,MG,1730092663
487,berdigestyakh,62.0989,126.6992,-11.96,85,37,1.54,RU,1730092664
488,inyonga,-6.7167,32.0667,21.73,71,97,0.71,TZ,1730092665
489,razdol'noye,45.7708,33.4878,10.93,86,16,3.38,UA,1730092666
490,hirara,24.8,125.2833,28.92,83,75,10.29,JP,1730092667
491,chudovo,59.1167,31.6833,6.91,92,100,4.17,RU,1730092668
492,prestea,5.4327,-2.1428,23.03,97,20,0.97,GH,1730092669
493,canutama,-6.5339,-64.3831,22.83,93,82,1.16,BR,1730092670
494,sakakah,29.9697,40.2064,17.76,32,0,2.54,SA,1730092672
495,new bedford,41.6362,-70.9342,9.28,63,91,0.45,US,1730092673
496,prince rupert,54.3161,-130.3201,8.83,81,100,5.14,CA,1730092674
497,shimoda,34.6667,138.95,20.32,87,100,5.62,JP,1730092675
498,polyarnyy,69.1989,33.4478,6.52,87,100,11.0,RU,1730092424
499,saint-philippe,-21.3585,55.7679,25.6,79,29,2.43,RE,1730092677
500,angren,41.0167,70.1436,4.28,98,100,2.39,UZ,1730092678
501,rovinj,45.08,13.64,17.22,82,88,0.79,HR,1730092679
502,booue,-0.0921,11.9385,21.34,100,100,0.35,GA,1730092680
503,rawson,-43.3002,-65.1023,11.16,40,0,3.09,AR,1730092682
504,gloversville,43.0528,-74.3438,6.24,65,100,0.0,US,1730092620
505,cadale,2.7603,46.3222,26.41,80,99,4.17,SO,1730092684
506,guiratinga,-16.3494,-53.7583,22.28,87,52,0.74,BR,1730092685
507,jieshi,22.8134,115.8257,25.77,70,92,3.84,CN,1730092686
508,puerto armuelles,8.2833,-82.8667,27.83,75,100,0.45,PA,1730092687
509,wacheng,33.7833,114.5167,22.07,35,1,0.77,CN,1730092689
510,hami,42.8,93.45,17.36,23,4,5.34,CN,1730092690
511,sola,-13.8833,167.55,26.82,80,100,4.86,VU,1730092693
512,ouadda,8.0777,22.4007,19.22,65,56,1.8,CF,1730092694
513,lagoa,39.05,-27.9833,17.96,72,73,4.54,PT,1730092695
514,island harbour,50.724,-1.2758,13.34,69,100,2.24,GB,1730092696
515,frankfurt (oder),52.3471,14.5506,8.6,93,34,1.94,DE,1730092697
516,adis zemen,12.1167,37.7833,17.67,71,2,1.89,ET,1730092698
517,chifeng,42.2683,118.9636,13.2,31,9,2.49,CN,1730092699
518,tsaratanana,-16.7833,47.65,29.75,53,7,1.12,MG,1730092700
519,buckeye,33.3703,-112.5838,23.46,18,0,0.0,US,1730092701
520,turbat,26.0023,63.044,32.31,15,4,7.34,PK,1730092703
521,griffith,41.5284,-87.4237,5.29,87,0,0.0,US,1730092704
522,mkuranga,-7.118,39.2078,27.29,72,37,2.54,TZ,1730092705
523,tavrichanka,43.3378,131.8639,9.92,44,0,1.55,RU,1730092706
524,bikenibeu village,1.3673,173.1241,29.98,70,20,3.09,KI,1730092707
525,frutal,-20.0247,-48.9406,22.03,94,99,2.52,BR,1730092158
526,mongo,12.1844,18.693,25.64,25,48,2.39,TD,1730092709
527,aban,56.67,96.06,4.28,88,100,4.39,RU,1730092710
528,bakhmach,51.1808,32.7569,7.28,73,71,1.29,UA,1730092712
529,fuling,29.7022,107.3919,23.57,50,12,1.11,CN,1730092713
530,gebeit,21.0667,36.3167,23.09,61,0,3.3,SD,1730092714
531,amungan,15.3652,119.9582,28.61,76,69,4.41,PH,1730092715
532,pitimbu,-7.4706,-34.8086,25.84,77,100,6.04,BR,1730092716
533,taroa,8.7058,171.2275,28.83,70,15,0.98,MH,1730092717
534,ephrata,40.1798,-76.1788,5.58,71,0,0.0,US,1730092718
535,goure,13.9835,10.2704,23.34,19,7,3.91,NE,1730092719
536,antonio enes,-16.2325,39.9086,27.77,66,10,6.38,MZ,1730092720
537,airdrie,55.866,-3.9803,13.36,94,100,3.74,GB,1730092717
538,xinyuan,37.3,99.0,6.26,22,6,3.01,CN,1730092722
539,paso robles,35.6266,-120.691,17.33,77,0,7.72,US,1730092531
540,birobidzhan,48.8,132.95,8.55,44,30,2.88,RU,1730092725
541,sinabang,2.4803,96.3801,30.32,65,42,1.88,ID,1730092726
542,dagda,56.0951,27.5372,9.06,86,100,4.3,LV,1730092727
543,zhangye,38.9342,100.4517,16.8,14,0,1.41,CN,1730092728
544,alofi,-19.0595,-169.9187,24.94,78,75,5.14,NU,1730092638
545,ugoofaaru,5.6667,73.0,27.82,82,99,7.04,MV,1730092730
546,aktanysh,55.7216,54.0829,1.98,77,99,1.3,RU,1730092731
547,salta,-24.7859,-65.4117,18.1,73,75,1.03,AR,1730092690
548,manakara,-22.1333,48.0167,26.31,77,38,3.07,MG,1730092733
549,novo aripuana,-5.1206,-60.3797,23.17,92,87,1.24,BR,1730092734
550,nantucket,41.2835,-70.0995,8.06,49,0,7.17,US,1730092736
551,isiro,2.7739,27.616,19.99,99,92,0.43,CD,1730092737
552,souillac,-20.5167,57.5167,27.21,78,40,3.6,MU,1730092738
553,praia da vitoria,38.7333,-27.0667,18.14,72,75,3.56,PT,1730092739
554,gushu,31.5598,118.4829,19.9,58,94,2.24,CN,1730092740
555,konarka,19.9,86.1167,29.47,72,28,3.81,IN,1730092741
556,sao vicente,-23.9631,-46.3919,19.43,26,100,3.12,BR,1730092742
557,kaa-khem,51.6833,94.7333,7.11,61,97,1.06,RU,1730092743
558,zapolyarnyy,69.4154,30.8136,5.27,94,100,6.36,RU,1730092517
